City_ID,City,Country,Lat,Lng,Max Temp,Humidity,Cloudiness,Wind Speed,Description
0,Hithadhoo,MV,-0.6,73.0833,82.8,71,78,10.76,broken clouds
1,Bertoua,CM,4.5833,13.6833,66.02,99,100,2.73,overcast clouds
2,Provideniya,RU,64.3833,-173.3,37.51,65,0,6.71,clear sky
3,Rikitea,PF,-23.1203,-134.9692,73.58,63,100,17.11,overcast clouds
4,Bengkulu,ID,-3.8004,102.2655,83.07,73,89,4.07,overcast clouds
5,Amurzet,RU,47.6967,131.0981,69.3,67,33,11.01,scattered clouds
6,Saint George,US,37.1041,-113.5841,79.39,31,1,1.01,clear sky
7,Urubicha,BO,-15.3833,-62.95,75.42,61,83,1.88,broken clouds
8,Port Alfred,ZA,-33.5906,26.891,58.06,85,100,11.74,overcast clouds
9,Cape Town,ZA,-33.9258,18.4232,59.34,71,0,18.66,clear sky
10,Bluff,NZ,-46.6,168.3333,48.79,83,93,26.35,overcast clouds
11,Puerto Ayora,EC,-0.7393,-90.3518,69.33,92,77,7.9,broken clouds
12,Vaini,TO,-21.2,-175.2,78.96,89,20,9.22,few clouds
13,Poshekhonye,RU,58.4993,39.1353,39.07,95,100,4.21,overcast clouds
14,Acapulco,MX,16.8634,-99.8901,79.32,84,95,5.55,overcast clouds
15,Barra Dos Coqueiros,BR,-10.9089,-37.0386,78.82,73,75,10.36,broken clouds
16,Pacific Grove,US,36.6177,-121.9166,62.8,80,20,3.0,few clouds
17,Labuhan,ID,-6.8844,112.2051,89.85,51,33,4.65,scattered clouds
18,Mataura,NZ,-46.1927,168.8643,48.47,95,85,10.54,light rain
19,Isangel,VU,-19.55,169.2667,76.24,69,75,15.01,broken clouds
20,Half Moon Bay,US,37.4636,-122.4286,65.17,73,40,1.99,haze
21,Constitucion,CL,-35.3333,-72.4167,48.81,60,0,6.69,clear sky
22,Mar Del Plata,AR,-38.0023,-57.5575,44.01,89,1,9.93,clear sky
23,Bethel,US,41.3712,-73.414,62.19,83,1,3.44,clear sky
24,Guerrero Negro,MX,27.9769,-114.0611,70.3,75,18,14.5,few clouds
25,Hami,CN,42.8,93.45,73.99,17,2,3.0,clear sky
26,Bredasdorp,ZA,-34.5322,20.0403,46.27,87,13,3.18,few clouds
27,Okato,NZ,-39.2,173.8833,56.43,80,22,14.65,few clouds
28,Cabo San Lucas,MX,22.8909,-109.9124,82.51,76,9,4.0,clear sky
29,Punta Arenas,CL,-53.15,-70.9167,46.51,46,20,40.29,few clouds
30,Bacolod,PH,10.6667,122.95,86.43,71,89,9.55,overcast clouds
31,Todos Santos,MX,23.45,-110.2167,82.0,85,2,7.18,clear sky
32,Husavik,IS,66.0449,-17.3389,28.65,70,86,14.14,overcast clouds
33,Maragogi,BR,-9.0122,-35.2225,74.07,86,34,7.4,scattered clouds
34,Marrakesh,MA,31.6315,-8.0083,66.27,72,0,2.3,clear sky
35,Bathsheba,BB,13.2167,-59.5167,77.61,94,20,6.91,few clouds
36,Ginda,IN,30.6945,78.4932,72.63,61,0,3.85,clear sky
37,Korla,CN,41.7597,86.1469,75.25,16,89,5.28,overcast clouds
38,Ushuaia,AR,-54.8,-68.3,39.6,68,100,13.29,overcast clouds
39,Ketchikan,US,55.3422,-131.6461,48.18,85,100,15.05,light rain
40,San Patricio,US,28.017,-97.5169,84.29,75,32,17.02,scattered clouds
41,Dikson,RU,73.5069,80.5464,36.59,94,100,13.65,overcast clouds
42,Doha,QA,25.2867,51.5333,85.98,62,3,2.3,clear sky
43,Hermanus,ZA,-34.4187,19.2345,57.9,84,20,9.31,few clouds
44,Cidreira,BR,-30.1811,-50.2056,63.16,93,100,2.35,overcast clouds
45,Nouadhibou,MR,20.931,-17.0347,79.61,56,34,16.22,scattered clouds
46,Poum,NC,-20.2333,164.0167,74.12,74,48,10.31,scattered clouds
47,Port Lincoln,AU,-34.7333,135.8667,61.65,71,59,4.83,broken clouds
48,Chake Chake,TZ,-5.2459,39.7666,76.21,85,83,7.34,light rain
49,Camacha,PT,33.0833,-16.3333,68.76,68,40,18.41,scattered clouds
50,Kisangani,CD,0.5167,25.2,69.26,97,100,1.7,overcast clouds
51,Saint-Philippe,RE,-21.3585,55.7679,73.22,76,33,11.72,scattered clouds
52,Sitka,US,57.0531,-135.33,51.69,58,75,12.66,broken clouds
53,Diamantino,BR,-14.4086,-56.4461,75.15,72,20,5.44,few clouds
54,Qingdao,CN,36.0986,120.3719,75.29,64,9,4.99,light rain
55,Rio De Janeiro,BR,-22.9028,-43.2075,73.9,83,0,4.61,clear sky
56,Egvekinot,RU,66.3167,-179.1667,22.21,92,91,3.62,overcast clouds
57,Castro,BR,-24.7911,-50.0119,61.74,87,90,1.74,overcast clouds
58,Chokurdakh,RU,70.6333,147.9167,27.1,94,81,6.87,broken clouds
59,Kamenka,RU,51.3223,42.7678,36.63,83,14,6.69,few clouds
60,Kapaa,US,22.0752,-159.319,82.38,80,90,13.8,light rain
61,Tuktoyaktuk,CA,69.4541,-133.0374,34.0,100,100,10.04,light rain
62,Lakes Entrance,AU,-37.8811,147.981,61.57,94,100,3.31,light rain
63,Bartow,US,27.8964,-81.8431,75.29,79,1,0.0,clear sky
64,Grand Gaube,MU,-20.0064,57.6608,75.38,60,42,8.01,scattered clouds
65,Barrow,US,71.2906,-156.7887,30.22,74,90,11.5,overcast clouds
66,Hobart,AU,-42.8794,147.3294,58.23,63,40,9.22,scattered clouds
67,Porto Empedocle,IT,37.2934,13.5264,69.73,77,14,3.33,few clouds
68,Chunskiy,RU,56.0815,99.6342,36.14,82,99,2.26,overcast clouds
69,San Policarpo,PH,12.1791,125.5072,87.78,64,99,2.64,overcast clouds
70,Chuy,UY,-33.6971,-53.4616,56.95,82,98,11.83,overcast clouds
71,Busselton,AU,-33.65,115.3333,64.85,78,64,15.75,broken clouds
72,Bobcaygeon,CA,44.5462,-78.542,48.87,91,2,5.44,clear sky
73,Avarua,CK,-21.2078,-159.775,80.65,69,100,4.61,overcast clouds
74,Srandakan,ID,-7.9386,110.2506,69.73,65,64,13.91,broken clouds
75,Lavrentiya,RU,65.5833,-171.0,32.09,98,100,8.03,light snow
76,Wahiawa,US,21.5028,-158.0236,77.32,74,1,11.5,clear sky
77,Yuncheng,CN,35.0231,110.9928,74.7,63,0,3.29,clear sky
78,Wynyard,AU,-41.0,145.7167,57.69,60,100,7.31,overcast clouds
79,Hasaki,JP,35.7333,140.8333,79.29,64,90,10.92,overcast clouds
80,Leningradskiy,RU,69.3833,178.4167,25.3,96,100,12.37,snow
81,Katsuura,JP,35.1333,140.3,77.14,72,69,11.74,broken clouds
82,Airai,TL,-8.9266,125.4092,82.67,28,16,3.6,few clouds
83,Rosarito,MX,32.3333,-117.0333,67.17,77,27,5.79,scattered clouds
84,Mahebourg,MU,-20.4081,57.7,75.25,65,66,16.69,broken clouds
85,Andenes,NO,69.3143,16.1194,49.98,81,75,8.05,broken clouds
86,Sept-Iles,CA,50.2001,-66.3821,44.06,88,76,6.13,broken clouds
87,Manavalakurichi,IN,8.1333,77.3,84.29,73,67,14.07,broken clouds
88,Kargil,IN,34.5667,76.1,57.06,45,5,2.57,clear sky
89,Lata,PT,40.1629,-8.3327,56.8,95,11,3.69,few clouds
90,Tanout,NE,14.9709,8.8879,83.55,44,34,8.1,scattered clouds
91,Mehamn,NO,71.0357,27.8492,49.95,71,0,6.91,clear sky
92,Yellowknife,CA,62.456,-114.3525,47.41,100,1,5.75,fog
93,Albany,US,42.6001,-73.9662,54.45,78,82,5.28,broken clouds
94,East London,ZA,-33.0153,27.9116,61.86,76,100,10.16,overcast clouds
95,Thompson,CA,55.7435,-97.8558,52.14,66,90,11.54,overcast clouds
96,Bambous Virieux,MU,-20.3428,57.7575,75.22,65,82,16.69,broken clouds
97,Tocoa,HN,15.6833,-86.0,73.94,98,34,1.92,scattered clouds
98,Butaritari,KI,3.0707,172.7902,83.28,74,73,18.34,broken clouds
99,San Cristobal,VE,7.7669,-72.225,64.99,95,93,2.24,overcast clouds
100,Omboue,GA,-1.5746,9.2618,75.81,89,100,6.85,light rain
101,Lebu,CL,-37.6167,-73.65,46.04,83,35,4.34,scattered clouds
102,Torbay,CA,47.6666,-52.7314,62.67,92,97,5.99,overcast clouds
103,Hilo,US,19.7297,-155.09,75.25,91,75,3.44,light rain
104,Catalao,BR,-18.1658,-47.9464,75.58,37,60,4.68,broken clouds
105,Virginia Beach,US,36.8529,-75.978,75.02,77,40,4.61,scattered clouds
106,Rudnya,RU,54.947,31.0934,37.42,89,49,6.42,scattered clouds
107,Nelidovo,RU,56.2211,32.7774,34.93,94,64,2.33,broken clouds
108,Saldanha,ZA,-33.0117,17.9442,58.57,76,0,23.94,clear sky
109,Udachnyy,RU,66.4167,112.4,32.43,60,100,4.45,overcast clouds
110,Presidencia Roque Saenz Pena,AR,-26.7852,-60.4388,67.14,88,48,7.74,scattered clouds
111,Saint-Georges,GD,12.0564,-61.7485,81.54,77,5,10.45,clear sky
112,Lodwar,KE,3.1191,35.5973,80.42,50,41,9.08,scattered clouds
113,Port Hardy,CA,50.6996,-127.4199,50.32,81,100,12.91,light rain
114,Longyearbyen,SJ,78.2186,15.6401,35.44,75,75,10.36,light rain
115,Olafsvik,IS,64.8945,-23.7142,41.13,80,100,21.41,overcast clouds
116,Atuona,PF,-9.8,-139.0333,77.68,77,10,19.98,light rain
117,Ahuimanu,US,21.4447,-157.8378,80.31,69,40,11.5,scattered clouds
118,Mount Gambier,AU,-37.8333,140.7667,62.6,58,100,12.28,overcast clouds
119,Tasiilaq,GL,65.6145,-37.6368,35.76,65,100,5.26,overcast clouds
120,Bani,DO,18.2833,-70.3333,77.7,82,28,4.68,scattered clouds
121,Gandajika,CD,-6.75,23.95,68.85,80,90,3.78,overcast clouds
122,Kununurra,AU,-15.7667,128.7333,98.58,25,11,8.05,few clouds
123,Aklavik,CA,68.2191,-135.0107,30.92,93,100,20.76,light snow
124,Dafeng,CN,23.4517,108.5881,91.71,55,1,2.28,clear sky
125,Klaksvik,FO,62.2266,-6.589,47.32,83,37,7.54,scattered clouds
126,Ponta Delgada,PT,37.7333,-25.6667,73.51,94,20,5.75,few clouds
127,Margate,GB,51.3813,1.3862,53.31,92,100,1.99,overcast clouds
128,Rio Gallegos,AR,-51.6226,-69.2181,48.25,31,75,23.02,broken clouds
129,Luang Prabang,LA,19.8856,102.1347,92.98,49,50,0.98,scattered clouds
130,Verkhnevilyuysk,RU,63.4453,120.3167,40.19,56,28,7.05,scattered clouds
131,Vila Velha,BR,-20.3297,-40.2925,71.55,88,40,8.05,scattered clouds
132,Lagunas,PE,-5.2269,-75.6753,74.25,87,55,2.55,broken clouds
133,Sao Filipe,CV,14.8961,-24.4956,79.36,78,8,8.97,clear sky
134,Khatanga,RU,71.9667,102.5,32.09,57,100,11.36,overcast clouds
135,Los Llanos De Aridane,ES,28.6585,-17.9182,69.55,72,75,18.41,broken clouds
136,Angren,UZ,41.0167,70.1436,69.49,29,100,3.49,overcast clouds
137,Jamestown,US,42.097,-79.2353,51.85,81,1,3.44,clear sky
138,Qaanaaq,GL,77.484,-69.3632,26.8,77,100,3.51,overcast clouds
139,Mafinga,TZ,-7.25,35.0667,68.5,56,64,3.51,broken clouds
140,Yulara,AU,-25.2406,130.9889,80.85,19,0,6.06,clear sky
141,Beloha,MG,-25.1667,45.05,73.65,51,60,3.96,broken clouds
142,Lantana,US,26.5867,-80.052,81.03,77,1,1.99,clear sky
143,San Quintin,MX,30.4833,-115.95,67.32,81,20,14.85,few clouds
144,Saquena,PE,-4.6667,-73.5167,72.57,97,61,1.03,broken clouds
145,Tautira,PF,-17.7333,-149.15,80.62,81,71,14.72,light rain
146,West Fargo,US,46.875,-96.9004,75.25,49,1,4.0,clear sky
147,Dunedin,NZ,-45.8742,170.5036,57.79,65,95,13.06,overcast clouds
148,Bourail,NC,-21.5667,165.4833,73.98,66,92,9.6,overcast clouds
149,Ixtapa,MX,20.7,-105.2,79.23,91,79,3.04,broken clouds
150,Severo-Kurilsk,RU,50.6789,156.125,54.79,77,100,11.05,overcast clouds
151,Alekseyevsk,RU,57.8406,108.3492,37.92,84,99,5.86,light rain
152,Forestville,US,38.8451,-76.875,69.33,86,1,4.61,clear sky
153,Were Ilu,ET,10.6,39.4333,50.97,60,7,4.88,clear sky
154,Coolum Beach,AU,-26.5333,153.1,72.1,64,100,10.25,light rain
155,Rokytne,UA,51.2796,27.214,39.9,96,6,5.95,clear sky
156,Nishihara,JP,26.1842,127.7558,89.26,70,40,11.5,scattered clouds
157,Karachi,PK,24.9056,67.0822,89.42,51,75,9.22,broken clouds
158,Tiksi,RU,71.6872,128.8694,33.15,82,100,2.13,overcast clouds
159,Adrar,MR,20.5022,-10.0711,85.96,11,0,6.53,clear sky
160,Iqaluit,CA,63.7506,-68.5145,30.92,71,100,4.83,overcast clouds
161,Karla,EE,59.3723,24.9275,46.06,91,90,6.91,overcast clouds
162,Jaciara,BR,-15.9653,-54.9683,80.65,49,23,2.33,few clouds
163,Arraial Do Cabo,BR,-22.9661,-42.0278,70.57,91,10,22.28,clear sky
164,Ribeira Grande,PT,38.5167,-28.7,72.0,88,16,13.69,few clouds
165,Puerto Escondido,MX,15.85,-97.0667,80.28,83,74,7.63,broken clouds
166,Upernavik,GL,72.7868,-56.1549,25.39,53,14,4.97,few clouds
167,Carnarvon,AU,-24.8667,113.6333,77.07,50,2,8.05,clear sky
168,Cape Coast,GH,5.1053,-1.2466,75.72,90,62,4.7,broken clouds
169,Oriximina,BR,-1.7656,-55.8661,79.83,66,70,1.43,broken clouds
170,Killybegs,IE,54.6333,-8.45,43.45,65,91,19.98,overcast clouds
171,Souillac,MU,-20.5167,57.5167,75.36,65,18,15.14,few clouds
172,Erdenet,MN,49.0333,104.0833,39.97,43,11,6.24,few clouds
173,Bhaderwah,IN,32.9784,75.7186,74.41,64,0,2.01,clear sky
174,Buraydah,SA,26.326,43.975,76.62,15,4,5.73,clear sky
175,Garowe,SO,8.4054,48.4845,80.69,53,42,18.48,scattered clouds
176,Kyabram,AU,-36.3167,145.05,63.88,97,100,11.41,moderate rain
177,Bozuyuk,TR,39.9078,30.0367,52.14,90,80,4.61,broken clouds
178,Dabakala,CI,8.3667,-4.4333,70.18,94,33,2.59,scattered clouds
179,Itarema,BR,-2.9248,-39.9167,78.76,84,12,16.31,few clouds
180,Zhangjiakou,CN,40.81,114.8794,66.69,30,1,2.98,clear sky
181,Dimapur,IN,25.9,93.7333,83.64,78,96,1.83,overcast clouds
182,Petropavlovka,RU,50.6114,105.3196,43.52,43,85,3.76,overcast clouds
183,Kuytun,RU,54.3419,101.5036,36.25,69,95,8.19,overcast clouds
184,Hammond,US,41.5834,-87.5,63.99,91,1,1.99,clear sky
185,Synya,RU,65.3718,58.0387,37.85,90,100,2.15,overcast clouds
186,Geraldton,AU,-28.7667,114.6,77.41,53,32,19.57,scattered clouds
187,Alberton,CA,46.8168,-64.0654,56.97,68,100,6.82,overcast clouds
188,Sinnamary,GF,5.3833,-52.95,79.05,83,3,9.06,clear sky
189,Smithers,CA,54.7804,-127.1743,40.41,83,99,1.79,overcast clouds
190,Puerto Carreno,CO,6.189,-67.4859,75.31,88,100,3.36,overcast clouds
191,Kysyl-Syr,RU,63.8986,122.7617,41.74,51,9,6.69,clear sky
192,Funtua,NG,11.5233,7.3081,70.16,83,77,6.26,broken clouds
193,Laguna,US,38.421,-121.4238,69.06,29,1,6.91,clear sky
194,Dengzhou,CN,37.8086,120.7508,72.57,69,0,7.72,clear sky
195,Nanortalik,GL,60.1432,-45.2371,36.88,62,0,3.67,clear sky
196,Khasan,RU,42.4308,130.6434,67.98,74,100,3.02,light rain
197,Seoul,KR,37.5683,126.9778,72.79,98,100,2.46,moderate rain
198,Turukhansk,RU,65.8167,87.9833,39.67,63,73,4.25,broken clouds
199,Trincomalee,LK,8.5711,81.2335,84.36,70,100,15.68,overcast clouds
200,Ahipara,NZ,-35.1667,173.1667,57.65,59,4,9.78,clear sky
201,Yatou,CN,37.15,122.3833,73.89,72,76,9.01,light rain
202,Ust-Omchug,RU,61.15,149.6333,26.55,55,48,5.5,scattered clouds
203,Bilma,NE,18.6853,12.9164,85.51,20,99,9.93,overcast clouds
204,Kalmunai,LK,7.4167,81.8167,88.23,51,81,5.68,broken clouds
205,Kodiak,US,57.79,-152.4072,45.91,76,75,5.75,broken clouds
206,Atar,MR,20.5169,-13.0499,89.83,14,57,10.83,broken clouds
207,Penzance,GB,50.1186,-5.5371,54.77,68,4,24.18,clear sky
208,Hamilton,US,39.1834,-84.5333,69.22,87,1,0.0,mist
209,Murray,US,40.6669,-111.888,56.62,65,40,1.01,scattered clouds
210,Pimentel,PE,-6.8367,-79.9342,63.05,86,6,8.84,clear sky
211,Maputo,MZ,-25.9653,32.5892,68.23,91,7,5.99,clear sky
212,Gweru,ZW,-19.45,29.8167,64.31,37,0,5.88,clear sky
213,Hornepayne,CA,49.2138,-84.7705,44.58,92,3,3.06,clear sky
214,Mesetas,CO,3.3846,-74.0442,69.33,93,100,3.83,overcast clouds
215,Narsaq,GL,60.9167,-46.05,35.82,41,0,7.34,clear sky
216,Talnakh,RU,69.4865,88.3972,35.8,60,33,2.68,scattered clouds
217,Saint-Jean-De-Maurienne,FR,45.1667,6.5833,38.37,91,75,3.58,broken clouds
218,Kortkeros,RU,61.8106,51.5806,42.8,89,100,3.56,overcast clouds
219,Sobolevo,RU,54.4299,31.8996,36.59,88,25,6.42,scattered clouds
220,Harda,IN,22.3333,77.1,79.5,83,97,9.62,overcast clouds
221,Qandala,SO,11.472,49.8728,89.82,50,77,4.14,broken clouds
222,Norman Wells,CA,65.282,-126.8329,28.81,90,100,9.73,overcast clouds
223,New Norfolk,AU,-42.7826,147.0587,57.88,54,98,1.99,overcast clouds
224,Rolla,US,37.9514,-91.7713,71.67,64,1,4.0,clear sky
225,Victoria,HK,22.2855,114.1577,91.96,75,5,1.01,clear sky
226,Barra Do Bugres,BR,-15.0725,-57.1811,78.12,64,62,3.85,broken clouds
227,Lasa,IT,46.6166,10.7002,55.02,93,98,1.54,light rain
228,Roald,NO,62.5833,6.1333,54.34,71,78,11.5,broken clouds
229,Padang,ID,-0.9492,100.3543,80.65,87,100,5.57,overcast clouds
230,Preobrazheniye,RU,42.9019,133.9064,65.1,89,100,7.58,light rain
231,Boguchany,RU,58.3814,97.4531,39.36,81,100,2.59,overcast clouds
232,Nikolskoye,RU,59.7035,30.7861,48.87,73,100,2.62,overcast clouds
233,West Bay,KY,19.3667,-81.4167,82.99,80,4,8.16,clear sky
234,Mayo,US,38.8876,-76.5119,70.21,82,26,5.99,scattered clouds
235,Shebalino,RU,51.2917,85.6772,47.1,79,100,6.93,overcast clouds
236,Kaitangata,NZ,-46.2817,169.8464,50.94,74,70,10.83,broken clouds
237,Banswara,IN,23.55,74.45,81.1,80,94,19.53,overcast clouds
238,Mahanje,TZ,-9.9333,35.3333,62.4,72,73,2.75,broken clouds
239,Krasnoselkup,RU,65.7,82.4667,36.77,63,55,3.47,broken clouds
240,Shelburne,CA,44.0787,-80.2041,49.86,83,28,6.11,scattered clouds
241,Waddan,LY,29.1614,16.139,73.18,33,0,2.77,clear sky
242,Bay,US,43.7334,-84.0166,55.89,87,0,3.06,clear sky
243,Ndele,CF,8.4109,20.6473,69.57,99,100,2.71,overcast clouds
244,Zhoucheng,CN,35.9122,116.3117,75.78,63,0,4.9,clear sky
245,San Ramon,US,37.7799,-121.978,64.92,56,1,4.61,clear sky
246,Vardo,NO,70.3705,31.1107,43.0,75,99,11.23,overcast clouds
247,Auxerre,FR,47.8,3.5667,55.29,83,55,13.65,broken clouds
248,Port Elizabeth,ZA,-33.918,25.5701,51.1,83,100,10.38,overcast clouds
249,Baturaja,ID,-4.1333,104.1667,87.35,65,70,2.95,broken clouds
250,Necocli,CO,8.4234,-76.786,75.83,91,100,10.13,overcast clouds
251,Alofi,NU,-19.0595,-169.9187,77.18,83,24,18.05,light rain
252,Inirida,CO,3.8653,-67.9239,73.11,98,81,4.21,broken clouds
253,Sisimiut,GL,66.9395,-53.6735,29.12,46,3,7.23,clear sky
254,Chapais,CA,49.7834,-74.8492,40.78,97,100,5.61,overcast clouds
255,Zhezkazgan,KZ,47.8043,67.7144,51.31,71,42,9.86,scattered clouds
256,Pedernales,DO,18.0384,-71.744,80.28,76,48,3.36,scattered clouds
257,Konakovo,RU,56.7,36.7667,32.0,92,100,3.67,overcast clouds
258,Saint-Leu,RE,-21.15,55.2833,72.68,68,48,2.44,scattered clouds
259,Port Shepstone,ZA,-30.7414,30.455,65.16,88,100,10.11,light rain
260,Vysokogornyy,RU,50.1167,139.15,67.14,56,40,8.46,scattered clouds
261,Kavaratti,IN,10.5669,72.642,81.25,80,28,16.26,scattered clouds
262,Clyde River,CA,70.4692,-68.5914,32.09,70,100,7.96,overcast clouds
263,El Pino,HN,15.7,-86.9333,76.87,94,20,2.3,few clouds
264,Hailar,CN,49.2,119.7,43.7,43,27,19.91,scattered clouds
265,Kloulklubed,PW,7.0419,134.2556,88.3,71,94,9.22,overcast clouds
266,Lompoc,US,34.6391,-120.4579,61.11,78,1,6.91,clear sky
267,Henties Bay,NA,-22.116,14.2845,54.86,92,26,10.13,scattered clouds
268,La Roda,ES,39.2167,-2.15,61.9,58,0,6.87,clear sky
269,Ventersburg,ZA,-28.0856,27.1381,64.13,36,76,9.57,broken clouds
270,San Salvador,SV,13.6894,-89.1872,71.83,94,90,1.23,overcast clouds
271,College,US,64.8569,-147.8028,30.58,72,20,0.0,few clouds
272,Bauru,BR,-22.3147,-49.0606,76.82,44,100,4.0,overcast clouds
273,Plettenberg Bay,ZA,-34.0527,23.3716,56.32,71,100,4.81,light rain
274,Suhbaatar,MN,50.2314,106.2078,42.91,55,59,3.33,broken clouds
275,Samarai,PG,-10.6167,150.6667,79.36,87,95,16.28,overcast clouds
276,Haines Junction,CA,60.7522,-137.5108,27.9,93,78,1.66,broken clouds
277,Cherskiy,RU,68.75,161.3,23.72,96,100,11.03,snow
278,Barreiras,BR,-12.1528,-44.99,80.82,37,77,3.49,broken clouds
279,Vostok,RU,46.4856,135.8833,68.74,52,100,5.95,overcast clouds
280,Luderitz,NA,-26.6481,15.1594,52.56,84,0,14.94,clear sky
281,Sayyan,YE,15.1718,44.3244,61.41,54,5,3.36,clear sky
282,Flinders,AU,-34.5833,150.8552,67.21,84,100,1.01,light rain
283,Saint-Augustin,CA,51.226,-58.6502,45.68,85,7,8.21,clear sky
284,Kuah,MY,6.3265,99.8432,81.84,75,99,8.21,overcast clouds
285,Georgetown,MY,5.4112,100.3354,85.89,77,20,3.0,few clouds
286,Asfi,MA,32.2994,-9.2372,67.37,90,12,17.22,few clouds
287,Alyangula,AU,-13.8483,136.4192,84.13,67,79,14.65,broken clouds
288,Piracicaba,BR,-22.7253,-47.6492,76.84,42,39,1.34,scattered clouds
289,Endicott,US,42.0984,-76.0494,50.72,91,20,1.01,few clouds
290,Nianzishan,CN,47.5167,122.8833,53.96,35,2,10.74,clear sky
291,Pudozh,RU,61.8099,36.5345,40.66,96,34,1.72,scattered clouds
292,Kismayo,SO,-0.3582,42.5454,78.44,82,96,11.81,overcast clouds
293,Ostrovnoy,RU,68.0531,39.5131,47.93,71,100,12.33,overcast clouds
294,Richards Bay,ZA,-28.783,32.0377,67.98,80,83,3.76,broken clouds
295,Havelock,US,34.8791,-76.9013,75.94,87,6,1.99,clear sky
296,San Andres,CO,12.5847,-81.7006,82.42,83,40,4.61,scattered clouds
297,Liku,ID,-0.7275,119.8922,87.94,62,83,2.57,broken clouds
298,Gunjur,GM,13.2019,-16.7339,75.27,94,40,9.22,scattered clouds
299,Srednekolymsk,RU,67.45,153.6833,29.3,64,88,8.81,overcast clouds
300,Eureka,US,40.8021,-124.1637,56.93,75,100,5.01,overcast clouds
301,Sao Joao Da Barra,BR,-21.6403,-41.0511,71.92,87,3,16.96,clear sky
302,Faanui,PF,-16.4833,-151.75,78.87,76,21,15.9,light rain
303,Tweed,CA,44.4751,-77.3162,52.14,82,4,5.3,clear sky
304,Jequitinhonha,BR,-16.4339,-41.0033,66.04,98,8,3.2,clear sky
305,Isla Vista,US,34.4133,-119.861,63.82,80,1,3.44,clear sky
306,Fortuna,US,40.5982,-124.1573,56.66,72,1,1.99,clear sky
307,Verkhoturye,RU,58.8627,60.8054,36.48,73,50,5.75,scattered clouds
308,Goderich,CA,43.7501,-81.7165,52.12,82,58,4.61,broken clouds
309,Vieux-Habitants,GP,16.0589,-61.7659,78.71,77,3,7.47,clear sky
310,Port Keats,AU,-14.25,129.55,87.6,57,12,12.26,few clouds
311,Sibolga,ID,1.7427,98.7792,78.1,90,100,2.08,light rain
312,Goleniow,PL,53.5639,14.8285,57.54,100,90,8.05,mist
313,Rocha,UY,-34.4833,-54.3333,53.55,74,67,7.05,broken clouds
314,Hueyapan,MX,18.8667,-98.6667,61.09,90,87,3.71,overcast clouds
315,Miles City,US,46.4083,-105.8406,67.17,30,40,21.85,scattered clouds
316,Mareeba,AU,-17.0,145.4333,82.44,64,100,10.27,overcast clouds
317,Kardla,EE,58.9978,22.7492,48.18,93,40,8.05,scattered clouds
318,At-Bashi,KG,41.1702,75.8106,60.15,23,50,1.95,scattered clouds
319,Phalodi,IN,27.1333,72.3667,88.99,55,2,15.26,clear sky
320,Southbridge,US,42.0751,-72.0334,58.19,93,56,7.58,broken clouds
321,Pahrump,US,36.2083,-115.9839,77.25,26,20,1.01,few clouds
322,Manuk Mangkaw,PH,4.8,119.85,84.6,69,70,5.61,broken clouds
323,Atbasar,KZ,51.8,68.3333,36.43,96,100,13.24,overcast clouds
324,Ambunti,PG,-4.2365,142.8448,93.94,47,45,3.29,scattered clouds
325,Esperance,AU,-33.8667,121.9,62.47,60,94,6.13,overcast clouds
326,Zabid,YE,14.1951,43.3152,86.72,67,38,5.7,scattered clouds
327,Tuatapere,NZ,-46.1333,167.6833,48.81,87,69,15.17,broken clouds
328,Bhag,PK,29.0415,67.8239,93.79,41,5,1.48,clear sky
329,Nouakchott,MR,18.0858,-15.9785,76.93,80,2,8.81,clear sky
330,Lagos,NG,6.5833,3.75,75.43,93,63,2.01,light rain
331,Kruisfontein,ZA,-34.0033,24.7314,48.88,80,100,7.16,overcast clouds
332,Mount Pleasant,US,32.7941,-79.8626,74.98,85,1,1.99,clear sky
333,Ayr,GB,55.4627,-4.6339,48.18,87,75,4.61,broken clouds
334,Solnechnyy,RU,50.7214,136.6319,67.44,61,54,13.98,broken clouds
335,Luau,AO,-10.7073,22.2247,65.17,66,7,1.48,clear sky
336,Senges,BR,-24.1128,-49.4636,68.9,71,54,3.53,broken clouds
337,Les Escoumins,CA,48.1111,-69.0236,43.95,89,61,1.39,broken clouds
338,Mochalishche,RU,56.3306,48.3547,39.97,80,77,4.05,light rain
339,Port Lavaca,US,28.615,-96.6261,79.99,89,40,21.85,scattered clouds
340,Portland,US,45.5234,-122.6762,55.13,90,77,1.01,broken clouds
341,Avigliano,IT,40.7329,15.72,55.58,70,32,1.74,scattered clouds
342,Awbari,LY,26.5921,12.7805,72.01,22,0,2.98,clear sky
343,Anshun,CN,26.25,105.9333,75.38,38,5,4.52,clear sky
344,Lovington,US,32.944,-103.3485,68.18,48,22,1.99,few clouds
345,Murgab,TM,37.4966,61.9714,64.27,52,0,6.91,clear sky
346,Inongo,CD,-1.95,18.2667,68.83,99,95,2.86,overcast clouds
347,Jiayuguan,CN,39.8167,98.3,70.68,14,0,6.58,clear sky
348,Wajima,JP,37.4,136.9,75.76,68,89,0.4,overcast clouds
349,Kungurtug,RU,50.5994,97.5228,40.53,24,13,1.74,few clouds
350,Lepley,RU,54.3092,42.8599,36.39,81,98,4.25,overcast clouds
351,Norrtalje,SE,59.758,18.705,55.02,87,100,9.51,overcast clouds
352,Ulladulla,AU,-35.35,150.4667,62.1,81,100,10.85,light rain
353,Natalinsk,RU,56.4739,57.8698,35.51,78,25,6.85,scattered clouds
354,Wattegama,LK,6.7989,81.4808,90.75,44,70,2.39,broken clouds
355,Westport,US,41.1415,-73.3579,64.8,85,90,8.01,overcast clouds
356,Ca Mau,VN,9.1769,105.15,90.9,55,23,6.08,few clouds
357,Khorol,UA,49.7837,33.2783,40.6,95,14,9.8,few clouds
358,Naze,JP,28.3667,129.4833,80.31,76,39,19.75,scattered clouds
359,San Jose,US,37.3394,-121.895,65.08,60,20,1.99,smoke
360,Severo-Yeniseyskiy,RU,60.3725,93.0408,35.89,64,100,5.23,overcast clouds
361,Petropavlovsk-Kamchatskiy,RU,53.0452,158.6483,63.19,48,20,15.66,few clouds
362,Soyo,AO,-6.1349,12.3689,74.35,83,100,6.31,overcast clouds
363,Alice Springs,AU,-23.7,133.8833,81.95,14,0,8.05,clear sky
364,Kropotkin,RU,45.4375,40.5756,52.74,77,100,10.58,overcast clouds
365,Namatanai,PG,-3.6667,152.4333,83.88,76,50,8.34,light rain
366,Ardahan,TR,41.1087,42.7022,41.4,86,32,2.39,scattered clouds
367,Fort-Shevchenko,KZ,44.5086,50.263,56.95,63,37,12.53,scattered clouds
368,Otake,JP,34.2,132.2167,81.84,57,75,5.75,broken clouds
369,Hambantota,LK,6.1241,81.1185,86.95,61,70,19.46,broken clouds
370,Raudeberg,NO,61.9875,5.1352,56.07,57,49,4.0,scattered clouds
371,Pisco,PE,-13.7,-76.2167,62.02,88,5,1.14,clear sky
372,Ilulissat,GL,69.2167,-51.1,26.62,39,37,3.44,scattered clouds
373,Deputatskiy,RU,69.3,139.9,23.72,63,63,0.87,broken clouds
374,Kahului,US,20.8947,-156.47,78.84,79,40,16.11,scattered clouds
375,Imeni Babushkina,RU,59.7573,43.1285,37.13,95,72,2.77,broken clouds
376,Bosobolo,CD,4.1833,19.9,67.57,98,100,0.85,overcast clouds
377,Yokote,JP,39.3,140.5667,77.16,57,45,8.16,scattered clouds
378,Yilan,TW,24.757,121.753,93.06,48,0,4.21,clear sky
379,Daru,PG,-9.0763,143.2092,80.71,83,100,14.85,overcast clouds
380,Axim,GH,4.8699,-2.2405,75.87,89,17,2.84,few clouds
381,Khani,GE,41.9563,42.9566,49.57,78,12,3.09,few clouds
382,Manzanillo,CU,20.3433,-77.1167,73.69,86,80,4.16,broken clouds
383,Porto Walter,BR,-8.2686,-72.7439,74.57,79,14,2.89,few clouds
384,Namibe,AO,-15.1961,12.1522,62.49,87,39,2.28,scattered clouds
385,Mpika,ZM,-11.8343,31.4529,64.98,54,66,4.59,broken clouds
386,Sakakah,SA,29.9697,40.2064,75.27,29,0,6.46,clear sky
387,Kushiro,JP,42.975,144.3747,67.15,59,40,11.5,scattered clouds
388,Nadym,RU,65.5333,72.5167,35.15,92,66,7.14,broken clouds
389,Prokhorovka,RU,51.0374,36.7325,42.37,94,58,7.16,broken clouds
390,Pokhara,NP,28.2333,83.9833,79.2,71,32,4.56,scattered clouds
391,Saint-Pierre,RE,-21.3393,55.4781,74.88,61,0,4.61,clear sky
392,Matagami,CA,49.7502,-77.6328,42.91,100,90,6.91,overcast clouds
393,Pochutla,MX,15.7432,-96.4661,75.81,83,77,3.47,broken clouds
394,Mangrol,IN,21.1167,70.1167,78.58,88,100,10.02,overcast clouds
395,Herat,AF,34.5,62.0,71.49,30,0,10.27,clear sky
396,Saint-Andre-Les-Vergers,FR,48.2853,4.0521,55.44,82,0,11.5,clear sky
397,Kieta,PG,-6.2167,155.6333,84.0,76,97,6.64,light rain
398,Kaeo,NZ,-35.1,173.7833,63.32,53,18,8.95,few clouds
399,Biak,ID,-0.9131,122.8766,83.19,71,42,7.2,scattered clouds
400,Fort Nelson,CA,58.8053,-122.7002,38.79,100,90,3.44,mist
401,North Bend,US,43.4065,-124.2243,54.95,97,1,5.75,clear sky
402,Mandalgovi,MN,45.7625,106.2708,43.07,44,41,4.81,scattered clouds
403,Cayenne,GF,4.9333,-52.3333,83.08,80,0,7.0,clear sky
404,Anadyr,RU,64.75,177.4833,28.9,58,0,8.95,clear sky
405,Dalby,AU,-27.1833,151.2667,65.98,69,100,1.99,light rain
406,Pringsewu,ID,-5.3582,104.9744,88.74,58,100,3.89,overcast clouds
407,Keetmanshoop,NA,-26.5833,18.1333,56.91,48,100,12.44,overcast clouds
408,Vila Franca Do Campo,PT,37.7167,-25.4333,73.2,91,27,3.85,scattered clouds
409,Selikhino,RU,50.3672,137.4996,70.97,56,50,15.21,scattered clouds
410,Stettler,CA,52.3168,-112.7186,46.15,66,80,3.44,broken clouds
411,Meulaboh,ID,4.1363,96.1285,83.05,70,98,5.55,light rain
412,Oranjemund,NA,-28.55,16.4333,55.72,89,51,9.53,broken clouds
413,Birao,CF,10.2849,22.7882,71.04,85,100,2.82,overcast clouds
414,San Felipe,VE,10.3399,-68.7425,73.04,90,100,3.49,overcast clouds
415,Punta Alta,AR,-38.8759,-62.0736,53.13,56,71,9.93,broken clouds
416,Puerto Leguizamo,CO,-0.1934,-74.7819,71.1,99,100,1.54,overcast clouds
417,Hervey Bay,AU,-25.2986,152.8535,76.03,58,100,10.67,moderate rain
418,Vestmannaeyjar,IS,63.4427,-20.2734,41.43,72,100,36.13,overcast clouds
419,Coquimbo,CL,-29.9533,-71.3436,53.33,100,90,4.61,fog
420,Caravelas,BR,-17.7125,-39.2481,69.93,89,0,5.55,clear sky
421,Gravdal,NO,68.1214,13.5031,53.49,62,0,6.91,clear sky
422,Ballina,AU,-28.8667,153.5667,69.98,62,100,14.76,overcast clouds
423,Sabang,ID,5.8933,95.3214,80.71,74,100,4.05,overcast clouds
424,Ust-Kuyga,RU,70.0167,135.6,25.2,87,79,2.35,broken clouds
425,Touros,BR,-5.1989,-35.4608,76.1,86,74,12.35,broken clouds
426,Duverge,DO,18.3784,-71.5247,77.67,85,16,1.99,few clouds
427,Mount Isa,AU,-20.7333,139.5,91.17,29,75,19.57,broken clouds
428,Guia De Isora,ES,28.2115,-16.7795,68.92,72,4,13.2,clear sky
429,Faya,SA,18.3851,42.4509,68.11,35,59,2.48,broken clouds
430,Polczyn-Zdroj,PL,53.7642,16.0957,53.91,68,100,13.13,overcast clouds
431,Veraval,IN,20.9,70.3667,78.71,88,100,11.23,light rain
432,Catemaco,MX,18.4167,-95.1167,73.17,87,80,3.49,broken clouds
433,Mokhsogollokh,RU,61.4681,128.9203,43.77,35,3,11.83,clear sky
434,Pinhal Novo,PT,38.6311,-8.9138,63.16,67,0,12.66,clear sky
435,Makakilo City,US,21.3469,-158.0858,79.12,66,1,11.5,clear sky
436,Hofn,IS,64.2539,-15.2082,38.66,62,100,8.08,overcast clouds
437,Cotonou,BJ,6.3654,2.4183,78.78,89,40,6.91,scattered clouds
438,Christchurch,NZ,-43.5333,172.6333,66.4,40,11,19.57,few clouds
439,Kavieng,PG,-2.5744,150.7967,84.34,73,32,8.95,light rain
440,Saskylakh,RU,71.9167,114.0833,29.19,77,100,4.99,overcast clouds
441,Ojinaga,MX,29.5667,-104.4167,77.41,33,1,8.05,clear sky
442,Bogashevo,RU,56.3683,85.1447,44.74,61,0,11.18,clear sky
443,Aketi,CD,2.7388,23.7833,66.94,97,100,0.85,overcast clouds
444,Ust-Maya,RU,60.4167,134.5333,48.42,66,77,9.62,broken clouds
445,Barwala,IN,29.3833,75.9167,86.27,64,5,9.75,clear sky
446,Ancud,CL,-41.8697,-73.8203,40.53,79,100,3.76,overcast clouds
447,Tucupita,VE,9.0622,-62.051,73.35,98,28,1.83,scattered clouds
448,Rafai,CF,4.95,23.9167,66.76,99,100,1.79,overcast clouds
449,Ngunguru,NZ,-35.6167,174.5,63.16,54,15,11.43,few clouds
450,Wawa,NG,9.9022,4.4192,72.95,87,93,4.63,overcast clouds
451,Taoudenni,ML,22.6783,-3.9836,87.48,12,0,11.39,clear sky
452,Manacapuru,BR,-3.2997,-60.6206,73.98,80,79,2.15,broken clouds
453,Wanlaweyn,SO,2.6185,44.8938,77.16,84,94,14.27,overcast clouds
454,Sandakan,MY,5.8402,118.1179,87.48,74,40,5.75,scattered clouds
455,Morro Bay,US,35.3658,-120.8499,65.28,74,18,7.25,few clouds
456,Qeshm,IR,26.9581,56.2719,85.89,68,30,4.07,scattered clouds
457,Hun,LY,29.1268,15.9477,73.18,32,0,2.66,clear sky
458,Walla Walla,US,46.0646,-118.343,57.42,69,90,5.01,overcast clouds
459,Langham,CA,52.3668,-106.9679,65.01,43,100,9.62,overcast clouds
460,Ponta Do Sol,PT,32.6667,-17.1,72.72,77,67,7.27,broken clouds
461,La Peca,PE,-5.6111,-78.435,69.08,78,24,3.36,light rain
462,Plymouth,US,41.8334,-70.8328,63.66,89,75,6.91,broken clouds
463,Kenai,US,60.5544,-151.2583,37.45,64,1,3.44,clear sky
464,Port Blair,IN,11.6667,92.75,84.06,72,92,3.04,overcast clouds
465,Aljezur,PT,37.3191,-8.8033,58.95,82,0,14.43,clear sky
466,Rorvik,NO,64.8621,11.2373,53.71,71,0,12.66,clear sky
467,Skelleftea,SE,64.7507,20.9528,48.56,69,90,3.44,overcast clouds
468,Berlevag,NO,70.8578,29.0864,50.0,71,93,11.99,overcast clouds
469,Gaspar,BR,-26.9314,-48.9589,71.04,97,100,0.43,overcast clouds
470,Sorong,ID,-0.8833,131.25,83.64,76,88,5.1,light rain
471,Road Town,VG,18.4167,-64.6167,83.19,72,1,13.27,clear sky
472,Parli,IN,18.8486,76.5297,77.85,80,98,14.12,overcast clouds
473,Pitsunda,GE,43.1592,40.3378,57.38,73,82,4.65,broken clouds
474,Eldorado,BR,-23.7869,-54.2836,71.08,55,92,7.58,overcast clouds
475,Salcininkai,LT,54.3,25.3833,46.49,97,9,8.1,clear sky
476,Northam,GB,51.0333,-4.2167,55.29,84,4,18.61,clear sky
477,Hopkinsville,US,36.8656,-87.4886,69.03,89,0,4.79,clear sky
478,Emerald,AU,-23.5333,148.1667,69.94,88,75,10.36,broken clouds
479,Bom Jesus,BR,-9.0744,-44.3586,80.6,32,53,1.16,broken clouds
480,Santiago,CL,-33.4569,-70.6483,63.86,29,0,4.61,clear sky
481,Elizabeth City,US,36.2946,-76.2511,74.01,89,1,0.0,clear sky
482,Kelapa Sawit,MY,1.6698,103.5327,92.05,74,40,4.61,scattered clouds
483,Amga,RU,60.8953,131.9608,43.27,71,72,8.88,broken clouds
484,Castro-Urdiales,ES,43.3829,-3.2204,59.99,84,78,6.46,broken clouds
485,Lamar,US,33.6668,-95.5836,78.71,69,75,9.22,broken clouds
486,Ambulu,ID,-8.345,113.6058,85.23,64,21,10.63,few clouds
487,Saint-Louis,SN,16.3333,-15.0,83.19,63,0,11.63,clear sky
488,Manitouwadge,CA,49.1215,-85.8403,41.72,83,0,0.43,clear sky
489,Chirongui,YT,-12.9319,45.1483,76.93,75,10,2.13,clear sky
490,Jalu,LY,29.0331,21.5482,69.98,64,0,7.54,clear sky
491,Bad Krozingen,DE,47.9167,7.7,60.4,84,70,4.0,broken clouds
492,Palmer,US,42.1584,-72.3287,57.4,82,47,6.64,scattered clouds
493,Gifhorn,DE,52.4833,10.55,52.36,99,75,3.44,broken clouds
494,Dingle,PH,10.9995,122.6711,86.99,72,84,8.3,broken clouds
495,Saint-Francois,FR,46.4154,3.9054,53.67,96,0,3.44,clear sky
496,Sfantu Gheorghe,RO,45.8667,25.7833,49.93,82,100,6.26,overcast clouds
497,Antalaha,MG,-14.9003,50.2788,71.65,87,68,6.91,light rain
498,Nome,US,64.5011,-165.4064,35.67,56,90,6.91,overcast clouds
499,Dondo,MZ,-19.6094,34.7431,71.24,83,13,1.41,few clouds
500,Tefe,BR,-3.3542,-64.7114,71.96,97,88,1.25,light rain
501,Marquette,US,46.5333,-87.6335,54.77,83,0,6.73,clear sky
502,Hounde,BF,11.5,-3.5167,74.37,75,12,3.98,few clouds
503,Ola,RU,59.5833,151.2833,38.03,49,89,12.01,overcast clouds
504,Wewak,PG,-3.5534,143.6268,85.46,70,32,8.55,scattered clouds
505,Sawakin,SD,19.1059,37.3321,83.48,67,14,3.98,few clouds
506,Batagay,RU,67.6333,134.6333,31.12,54,23,0.38,few clouds
507,Pulandian,CN,39.3953,121.9669,75.33,67,19,10.56,few clouds
508,Kaniv,UA,49.7518,31.46,41.13,95,13,7.07,few clouds
509,Xining,CN,36.6167,101.7667,61.25,37,100,1.52,overcast clouds
510,Tocopilla,CL,-22.092,-70.1979,61.65,71,20,1.97,few clouds
511,Villanueva,HN,15.3167,-88.0,79.79,78,75,6.91,broken clouds
512,Acarau,BR,-2.8856,-40.12,78.87,84,10,17.0,clear sky
513,Musoma,TZ,-1.5,33.8,69.91,66,60,4.14,broken clouds
514,Hirara,JP,24.8,125.2833,87.66,74,40,13.8,scattered clouds
515,Melfi,IT,40.9965,15.6514,60.4,66,30,4.16,scattered clouds
516,Menomonie,US,44.8755,-91.9193,60.37,82,6,3.44,clear sky
517,Hobyo,SO,5.3505,48.5268,79.83,78,2,21.7,clear sky
518,Sumbe,AO,-11.2061,13.8437,70.27,89,49,6.73,scattered clouds
519,Necochea,AR,-38.5473,-58.7368,47.03,78,2,11.52,clear sky
520,Sambava,MG,-14.2667,50.1667,72.3,84,77,10.16,light rain
521,Kattivakkam,IN,13.2167,80.3167,86.09,58,99,8.75,overcast clouds
522,Guantanamo,CU,20.1444,-75.2092,75.27,90,95,2.95,overcast clouds
523,Luanda,AO,-8.8368,13.2343,71.37,88,55,8.01,broken clouds
524,Maceio,BR,-9.6658,-35.7353,74.64,94,20,3.44,few clouds
525,Tselinnoye,RU,53.0833,85.6667,40.06,90,100,8.08,light rain
526,Cedar City,US,37.6775,-113.0619,52.77,49,1,16.11,clear sky
527,Nyurba,RU,63.2842,118.3319,39.25,58,51,7.67,broken clouds
528,Platnirovskaya,RU,45.3953,39.3842,53.78,71,100,12.24,light rain
529,Yala,TH,6.3333,101.25,90.46,65,90,1.72,overcast clouds
530,Tangshan,CN,39.6333,118.1833,75.43,56,2,6.11,clear sky
531,Arlit,NE,18.7369,7.3853,85.8,24,34,8.12,scattered clouds
532,Grindavik,IS,63.8424,-22.4338,40.95,87,90,37.98,overcast clouds
533,Talaya,RU,61.3833,152.75,26.33,57,100,10.63,overcast clouds
534,Minot,US,48.2325,-101.2963,80.82,36,1,14.0,clear sky
535,San Pedro,PH,14.35,121.0167,90.32,67,57,6.04,broken clouds
536,Wukari,NG,7.85,9.7833,72.28,96,100,3.67,moderate rain
537,Salalah,OM,17.0151,54.0924,82.49,74,20,1.14,few clouds
538,Pacifica,US,37.6138,-122.4869,65.82,79,40,1.99,haze
539,Denpasar,ID,-8.65,115.2167,85.66,74,40,12.66,scattered clouds
540,Togur,RU,58.3631,82.8265,41.4,67,22,6.22,few clouds
541,Kiama,AU,-34.6833,150.8667,67.37,87,100,5.01,light rain
542,Skibbereen,IE,51.55,-9.2667,46.2,71,5,10.92,clear sky
543,Sagaing,MM,21.8787,95.9797,86.18,74,75,1.14,broken clouds
544,Bhuvanagiri,IN,11.4667,79.6333,87.42,52,100,3.24,overcast clouds
545,Codrington,AU,-38.2667,141.9667,59.52,73,99,19.35,overcast clouds
546,Novosergiyevka,RU,52.0934,53.6528,37.8,73,100,9.22,overcast clouds
547,Te Anau,NZ,-45.4167,167.7167,47.61,83,83,9.06,broken clouds
548,Monrovia,LR,6.3005,-10.7969,74.52,90,94,4.14,light rain
549,Tortoli,IT,39.9256,9.6572,67.98,59,66,3.94,broken clouds
550,Kendari,ID,-3.945,122.4989,86.68,61,20,6.38,few clouds
551,Arman,RU,59.7,150.1667,37.27,54,88,8.9,overcast clouds
552,Komsomolskiy,UZ,40.4272,71.7189,72.32,37,3,6.91,clear sky
553,Darnah,LY,32.767,22.6367,73.6,84,8,10.96,clear sky
554,Elko,US,41.0002,-115.5012,46.42,43,100,10.0,overcast clouds
555,Saint-Avertin,FR,47.3636,0.7399,57.38,91,75,10.36,broken clouds
556,Prince Rupert,CA,54.3161,-130.3201,49.69,77,90,6.91,light rain
557,Dwarka,IN,22.2394,68.9678,83.5,78,100,10.38,overcast clouds
558,Santa Marta,CO,11.2408,-74.199,80.98,80,92,4.32,overcast clouds
559,Champerico,GT,14.3,-91.9167,83.35,83,76,6.55,broken clouds
560,Bodden Town,KY,19.2833,-81.25,82.92,84,3,7.25,clear sky
561,Mnogovershinnyy,RU,53.9353,139.9242,62.24,55,100,8.95,overcast clouds
562,Elban,RU,50.1018,136.5094,67.46,65,80,10.54,broken clouds
563,Goundam,ML,16.4145,-3.6708,87.67,13,0,5.93,clear sky
564,Hualmay,PE,-11.0964,-77.6139,62.08,85,30,6.78,scattered clouds
565,Ukiah,US,39.1502,-123.2078,60.03,72,1,0.0,clear sky
566,Mandurah,AU,-32.55,115.7,76.12,74,37,16.64,scattered clouds
567,Kapit,MY,2.0167,112.9333,83.98,80,97,3.04,overcast clouds
568,Nuevo Progreso,MX,23.1667,-97.95,81.46,69,20,1.01,few clouds
569,Gizo,SB,-8.103,156.8419,83.46,74,97,6.55,moderate rain
570,Ulaangom,MN,49.9811,92.0667,40.95,44,97,2.89,overcast clouds
571,Toyooka,JP,35.5333,134.8333,80.65,69,75,8.05,broken clouds
572,Sechura,PE,-5.5569,-80.8222,64.18,82,18,8.88,few clouds
573,Whitecourt,CA,54.1502,-115.6855,45.64,65,20,2.3,few clouds
574,Blackpool,GB,53.8167,-3.05,51.78,88,12,15.39,few clouds
575,Lagoa,PT,39.05,-27.9833,70.97,87,94,16.53,overcast clouds
576,Teluknaga,ID,-6.0989,106.6381,94.62,70,40,4.0,scattered clouds
577,Trairi,BR,-3.2778,-39.2689,78.87,84,12,13.29,few clouds
578,Uige,AO,-7.6087,15.0613,66.04,92,60,1.92,broken clouds
579,Gaziantep,TR,37.0594,37.3825,58.66,72,0,0.0,clear sky
580,Pangnirtung,CA,66.1451,-65.7125,35.31,51,100,2.64,overcast clouds
581,Englewood,US,39.6478,-104.9878,66.56,48,20,9.22,few clouds
582,Mazagao,BR,-0.115,-51.2894,82.45,84,0,3.96,clear sky
583,Igarka,RU,67.4667,86.5833,37.42,69,83,3.85,broken clouds
584,Pathein,MM,16.7833,94.7333,85.24,73,84,4.97,broken clouds
585,Konevo,RU,62.1215,39.3192,40.15,98,80,3.98,broken clouds
586,Port Augusta,AU,-32.5,137.7667,76.71,29,0,7.58,clear sky
587,Murdochville,CA,48.9583,-65.5006,38.28,91,32,2.98,scattered clouds
588,Cap Malheureux,MU,-19.9842,57.6142,75.69,61,40,8.01,scattered clouds
589,Conakry,GN,9.538,-13.6773,70.36,79,98,9.71,moderate rain
590,Tashtyp,RU,52.7939,89.8983,41.18,46,95,3.69,overcast clouds
591,Princeton,US,25.5384,-80.4089,81.0,77,1,0.0,clear sky
592,Severodvinsk,RU,64.5635,39.8302,37.51,92,93,5.57,overcast clouds
593,Gat,IL,31.61,34.7642,72.39,100,29,3.13,scattered clouds
594,Sumbawanga,TZ,-7.9667,31.6167,60.96,62,60,2.71,broken clouds
595,Ambilobe,MG,-13.2,49.05,76.44,58,10,6.22,clear sky
596,San Luis,AR,-33.295,-66.3356,59.56,46,0,7.61,clear sky
597,Pevek,RU,69.7008,170.3133,25.61,84,100,7.63,overcast clouds
598,Banda Aceh,ID,5.5577,95.3222,82.06,75,100,3.8,overcast clouds
599,Rio Grande,BR,-32.035,-52.0986,60.94,95,100,15.86,overcast clouds
600,Nhamunda,BR,-2.1861,-56.7131,76.35,75,22,0.72,few clouds
601,La Ronge,CA,55.1001,-105.2842,60.1,64,94,6.98,overcast clouds
602,Kabala,SL,9.5833,-11.55,69.78,95,96,1.28,overcast clouds
603,Sola,VU,-13.8833,167.55,79.9,77,99,12.53,overcast clouds
604,Nantucket,US,41.2835,-70.0995,65.14,88,94,15.32,overcast clouds
605,Shenzhen,CN,22.5455,114.0683,91.85,81,6,6.62,clear sky
606,Kawalu,ID,-7.3817,108.2082,80.51,67,96,4.43,overcast clouds
607,Verkhoyansk,RU,67.5447,133.385,31.69,55,18,1.41,few clouds
608,Quesnel,CA,52.9999,-122.5029,43.3,93,90,0.0,overcast clouds
609,Havre-Saint-Pierre,CA,50.2334,-63.5986,41.36,93,1,2.3,mist
610,Coihaique,CL,-45.5752,-72.0662,39.15,87,20,3.44,few clouds
611,Oneida,US,43.2001,-75.4663,51.73,92,20,3.44,few clouds
612,Belaya Gora,RU,68.5333,146.4167,31.86,64,84,11.18,broken clouds
613,Aswan,EG,24.0934,32.907,73.96,38,0,9.35,clear sky
614,Kerema,PG,-7.9631,145.7785,82.63,79,100,8.93,overcast clouds
615,Clonakilty,IE,51.6231,-8.8706,45.61,75,4,11.23,clear sky
616,Onverwacht,SR,5.5833,-55.1833,78.85,94,0,2.3,clear sky
617,Dologon,PH,7.8408,125.0444,87.13,65,100,3.69,overcast clouds
618,Azul,AR,-36.777,-59.8585,43.66,97,67,6.89,broken clouds
619,Turayf,SA,31.6725,38.6637,61.05,82,0,4.61,clear sky
620,Kankon,IN,15.0167,74.0167,76.8,88,100,11.16,overcast clouds
621,Maloy,NO,61.9353,5.1136,58.84,57,43,4.0,scattered clouds
622,Poronaysk,RU,49.2167,143.1167,65.17,75,85,13.94,overcast clouds
623,Sungairaya,ID,0.7,108.9,88.86,59,68,4.23,moderate rain
624,Puerto Del Rosario,ES,28.5004,-13.8627,73.15,78,17,23.02,few clouds
625,Tucurui,BR,-3.7661,-49.6725,74.05,92,74,3.2,broken clouds
626,Alta Floresta,BR,-9.8756,-56.0861,69.12,97,68,3.85,broken clouds
627,Le Port,RE,-20.9373,55.2919,73.62,65,50,6.73,scattered clouds
628,Gladstone,AU,-23.85,151.25,73.78,60,90,12.66,overcast clouds
629,Griffith,US,41.5284,-87.4237,64.33,92,1,0.0,clear sky
630,Ewa Beach,US,21.3156,-158.0072,80.55,65,40,15.99,scattered clouds
631,Gamba,GA,-2.65,10.0,75.24,87,100,6.8,overcast clouds
632,Dali,CN,25.7,100.1833,67.21,82,95,1.95,overcast clouds
633,Hollins,US,37.3413,-79.9431,70.18,86,1,0.0,clear sky
634,Fairbanks,US,64.8378,-147.7164,30.6,72,20,0.0,few clouds
635,High Level,CA,58.5169,-117.136,50.11,93,75,5.75,broken clouds
636,Chimore,BO,-16.9833,-65.1333,78.3,57,50,0.67,scattered clouds
637,Lubbock,US,33.6001,-101.8338,73.15,49,20,1.99,few clouds
638,Chimoio,MZ,-19.1164,33.4833,66.06,100,0,0.83,fog
639,Les Cayes,HT,18.2,-73.75,77.97,82,0,4.61,clear sky
640,Buchanan,LR,5.8808,-10.0467,75.2,89,98,4.76,light rain
641,Mackenzie,CA,55.2999,-123.1698,41.22,81,1,6.91,clear sky
642,Khilok,RU,51.3674,110.4676,36.73,67,100,12.08,overcast clouds
643,Mankono,CI,8.0586,-6.1897,70.07,93,82,2.8,broken clouds
644,Aripuana,BR,-9.1667,-60.6333,72.07,86,16,1.54,few clouds
645,Iracoubo,GF,5.4802,-53.2011,79.54,82,3,9.13,clear sky
646,Kokopo,PG,-4.352,152.2633,86.36,64,38,12.48,scattered clouds
647,Languyan,PH,5.2618,120.0807,87.93,61,92,3.85,overcast clouds
648,Svetlyy,RU,54.675,20.1347,41.05,78,36,13.35,scattered clouds
649,Dodge City,US,37.7528,-100.0171,75.63,50,1,5.01,clear sky
650,Masvingo,ZW,-20.0637,30.8277,66.88,43,0,4.47,clear sky
651,Neuquen,AR,-38.9516,-68.0591,58.89,44,0,3.44,clear sky
652,Sulayman,IQ,31.4002,46.2851,86.45,16,0,7.18,clear sky
653,Trinidad,BO,-14.8333,-64.9,80.65,55,62,3.83,broken clouds
654,Severobaykalsk,RU,55.65,109.3167,39.97,50,28,2.35,scattered clouds
655,Saint Anthony,US,45.0205,-93.218,68.11,67,1,1.01,clear sky
656,Yegorlykskaya,RU,46.5656,40.6562,48.74,100,40,12.5,scattered clouds
657,Jacmel,HT,18.2342,-72.5347,80.44,81,5,4.18,clear sky
